City_ID,City,Lat,Lng,Max Temp,Humidity,Cloudiness,Wind Speed,Country,Date
0,aasiaat,68.7098,-52.8699,-17.58,86,30,4.14,GL,1730235487
1,ushuaia,-54.8,-68.3,6.81,65,75,11.83,AR,1730235488
2,grytviken,-54.2811,-36.5092,0.24,77,68,4.04,GS,1730235489
3,mount isa,-20.7333,139.5,25.87,29,4,2.57,AU,1730235490
4,edinburgh of the seven seas,-37.0676,-12.3116,13.95,79,3,8.48,SH,1730235491
5,jiuquan,39.7432,98.5174,6.01,44,75,1.13,CN,1730235492
6,wailua homesteads,22.0669,-159.378,27.29,84,40,6.17,US,1730235494
7,port-aux-francais,-49.35,70.2167,1.0,63,85,5.57,TF,1730235495
8,adamstown,-25.066,-130.1015,21.15,71,36,2.81,PN,1730235496
9,bredasdorp,-34.5322,20.0403,14.01,88,0,0.82,ZA,1730235497
10,brookings,44.3114,-96.7984,14.0,72,0,4.63,US,1730235485
11,elko,41.0002,-115.5012,3.97,53,98,4.02,US,1730235499
12,chonchi,-42.6128,-73.8092,18.65,54,100,2.76,CL,1730235501
13,brazzaville,-4.2658,15.2832,25.08,83,100,1.28,CG,1730235502
14,kumertau,52.7667,55.7833,-0.89,66,7,2.14,RU,1730235503
15,sumbawa besar,-8.5,117.4333,23.81,86,48,1.92,ID,1730235504
16,praya,14.9215,-23.5087,25.3,69,75,5.14,CV,1730235505
17,margaret river,-33.95,115.0667,12.67,86,100,3.91,AU,1730235506
18,severo-yeniseyskiy,60.3725,93.0408,-3.65,98,100,1.15,RU,1730235507
19,itaueira,-7.6033,-43.0256,31.76,23,45,1.57,BR,1730235509
20,khandyga,62.6667,135.6,-22.46,96,39,0.66,RU,1730235282
21,palikir - national government center,6.9248,158.1611,25.41,94,100,0.0,FM,1730235511
22,iqaluit,63.7506,-68.5145,-3.15,68,40,7.72,CA,1730235512
23,ust'-ordynskiy,52.805,104.7508,1.84,98,100,2.74,RU,1730235513
24,eagle point,42.4726,-122.8028,11.8,69,40,1.34,US,1730235514
25,tura,25.5198,90.2201,21.22,95,8,1.06,IN,1730235515
26,stanley,54.868,-1.6985,9.18,92,52,1.71,GB,1730235517
27,vorgashor,67.5833,63.95,-2.26,97,100,4.25,RU,1730235518
28,quirihue,-36.2833,-72.5333,24.2,43,5,2.46,CL,1730235519
29,blackmans bay,-43.0167,147.3167,11.07,78,100,0.45,AU,1730235520
30,ilulissat,69.2167,-51.1,-19.66,66,16,3.42,GL,1730235521
31,ginir,7.1333,40.7,14.86,93,69,1.2,ET,1730235522
32,caceres,39.522,-6.3748,14.68,90,100,7.07,ES,1730235523
33,el coacoyul,17.6167,-101.4333,29.71,68,13,2.46,MX,1730235525
34,fang,19.9169,99.2145,21.18,90,9,0.4,TH,1730235526
35,puerto natales,-51.7236,-72.4875,7.25,87,100,1.03,CL,1730235527
36,karkira,36.9292,6.5856,23.28,57,71,2.59,DZ,1730235528
37,puerto ayora,-0.7393,-90.3518,20.86,95,59,3.13,EC,1730235529
38,udachny,66.4167,112.4,-27.2,100,99,1.89,RU,1730235530
39,plettenberg bay,-34.0527,23.3716,15.1,86,95,3.02,ZA,1730235531
40,waitangi,-43.9535,-176.5597,12.42,93,100,8.34,NZ,1730235533
41,yoichi,43.2039,140.7703,7.48,70,99,2.39,JP,1730235534
42,avarua,-21.2078,-159.775,25.03,69,40,7.2,CK,1730235535
43,srednyaya yelyuzan',53.0241,45.9529,4.64,88,100,4.21,RU,1730235536
44,alofi,-19.0595,-169.9187,26.94,61,20,5.14,NU,1730235537
45,albany,42.6001,-73.9662,12.54,63,100,1.34,US,1730235538
46,kuanda,56.3161,116.0806,-8.03,96,99,0.53,RU,1730235539
47,noumea,-22.2763,166.4572,25.0,99,53,5.28,NC,1730235541
48,gizo,-8.103,156.8419,28.01,76,49,1.41,SB,1730235542
49,carnarvon,-24.8667,113.6333,21.29,81,0,8.52,AU,1730235504
50,tamanrasset,22.785,5.5228,21.95,16,0,4.12,DZ,1730235544
51,axim,4.8699,-2.2405,25.44,87,58,1.35,GH,1730235545
52,kerikeri,-35.2268,173.9474,15.51,81,49,5.36,NZ,1730235546
53,shaowu,27.3409,117.4831,14.79,82,100,0.52,CN,1730235547
54,bethel,41.3712,-73.414,14.56,75,100,3.6,US,1730235548
55,ghat,24.9647,10.1728,23.31,23,2,1.92,LY,1730235550
56,cannonvale,-20.2833,148.7,24.66,67,0,3.36,AU,1730235553
57,callao,-12.0667,-77.15,19.16,77,75,6.69,PE,1730235554
58,colonia,50.9333,6.95,13.87,91,75,2.06,DE,1730235338
59,bafilo,9.35,1.2667,24.43,57,22,1.25,TG,1730235556
60,laojunmiao,39.8333,97.7333,2.94,52,64,1.61,CN,1730235558
61,anadyr,64.75,177.4833,-3.72,73,93,6.0,RU,1730235559
62,west island,-12.1568,96.8225,25.99,83,40,4.63,CC,1730235560
63,fedorovskiy,45.0972,40.9517,11.13,80,97,2.97,RU,1730235561
64,bubaque,11.2833,-15.8333,28.38,76,90,3.63,GW,1730235562
65,takoradi,4.8845,-1.7554,25.53,87,83,1.29,GH,1730235563
66,namibe,-15.1961,12.1522,18.58,82,13,2.73,AO,1730235564
67,ribeira grande,38.5167,-28.7,20.22,77,20,7.2,PT,1730235566
68,olonkinbyen,70.9221,-8.7187,-4.75,55,94,6.87,SJ,1730235567
69,port augusta,-32.5,137.7667,18.79,43,0,1.5,AU,1730235568
70,port alfred,-33.5906,26.891,14.54,98,100,3.58,ZA,1730235569
71,sao joao da barra,-21.6403,-41.0511,21.05,90,100,6.13,BR,1730235570
72,howard springs,-12.497,131.047,26.95,92,100,2.58,AU,1730235571
73,jamestown,42.097,-79.2353,21.68,59,0,5.66,US,1730235572
74,shiyan,32.6475,110.7781,13.07,83,20,0.88,CN,1730235574
75,tarawa,1.419,172.984,29.05,74,20,2.57,KI,1730235576
76,luderitz,-26.6481,15.1594,17.32,70,0,8.82,NA,1730235577
77,ranot,7.7777,100.3213,26.47,84,100,3.27,TH,1730235578
78,assab,13.0092,42.7394,29.0,73,2,11.19,ER,1730235579
79,nyurba,63.2842,118.3319,-23.89,100,100,0.54,RU,1730235580
80,nefteyugansk,61.0998,72.6035,-1.25,91,100,4.77,RU,1730235581
81,camiri,-20.05,-63.5167,32.88,38,40,0.0,BO,1730235583
82,invercargill,-46.4,168.35,12.23,74,100,2.24,NZ,1730235395
83,sitka,57.0531,-135.33,5.39,92,100,5.2,US,1730235585
84,enewetak,11.3474,162.3373,28.85,74,80,6.01,MH,1730235586
85,hadibu,12.65,54.0333,25.95,64,0,1.61,YE,1730235587
86,thompson,55.7435,-97.8558,3.09,60,75,4.63,CA,1730235588
87,taltal,-25.4,-70.4833,18.73,70,23,2.85,CL,1730235589
88,bamboo flat,11.7,92.7167,26.17,81,17,1.79,IN,1730235591
89,hasaki,35.7333,140.8333,19.75,95,100,7.35,JP,1730235592
90,yellowknife,62.456,-114.3525,-6.99,96,75,5.14,CA,1730235593
91,wicklow,53.0,-6.4167,8.36,90,59,0.88,IE,1730235594
92,punta del este,-34.9667,-54.95,28.06,85,20,4.63,UY,1730235461
93,shubarkuduk,49.1447,56.4872,0.55,63,6,1.79,KZ,1730235596
94,uturoa,-16.7333,-151.4333,25.2,68,85,7.66,PF,1730235597
95,georgetown,5.4112,100.3354,26.96,87,20,1.54,MY,1730235599
96,ponta delgada,37.7333,-25.6667,18.44,88,40,3.6,PT,1730235600
97,zolochiv,49.806,24.8944,10.53,98,100,2.3,UA,1730235601
98,san antonio de pale,-1.4014,5.6325,25.51,83,97,5.01,GQ,1730235358
99,codrington,-38.2667,141.9667,11.22,83,73,2.45,AU,1730235603
100,kingston,17.997,-76.7936,32.53,66,40,8.75,JM,1730235604
101,kupang,-10.1667,123.5833,29.32,74,75,2.57,ID,1730235606
102,lihue,21.9789,-159.3672,27.63,87,40,6.17,US,1730235607
103,hithadhoo,-0.6,73.0833,27.85,74,90,4.64,MV,1730235396
104,bardai,11.65,7.2333,24.06,30,100,3.06,NG,1730235609
105,papatowai,-46.5619,169.4708,11.16,67,100,6.3,NZ,1730235610
106,whitehorse,60.7161,-135.0538,-0.55,92,100,9.39,CA,1730235611
107,nizhneudinsk,54.9076,99.0276,-0.15,84,93,2.04,RU,1730235612
108,pisco,-13.7,-76.2167,22.03,64,0,10.29,PE,1730235613
109,ebon,4.582,168.6964,28.01,74,93,4.66,MH,1730235402
110,vilyuchinsk,52.9306,158.4028,4.15,71,92,21.88,RU,1730235616
111,kaoma,-14.7833,24.8,24.15,43,73,2.12,ZM,1730235617
112,isafjordur,66.0755,-23.124,0.08,91,98,2.47,IS,1730235618
113,fortuna,40.5982,-124.1573,15.52,61,0,5.14,US,1730235619
114,puerto leguizamo,-0.1934,-74.7819,28.18,62,99,2.43,CO,1730235620
115,mankono,8.0586,-6.1897,24.12,83,82,1.5,CI,1730235621
116,nar'yan-mar,67.6713,53.087,0.66,89,100,5.73,RU,1730235623
117,rawson,-43.3002,-65.1023,32.16,6,0,4.12,AR,1730235624
118,amga,60.8953,131.9608,-16.46,98,99,0.9,RU,1730235625
119,la passe,45.5549,-0.8967,14.95,90,0,4.1,FR,1730235626
120,sinop,41.7711,34.8709,9.26,93,53,1.46,TR,1730235627
121,mana,5.6592,-53.7767,27.47,76,100,4.49,GF,1730235628
122,iskateley,67.6803,53.1512,0.64,89,100,5.78,RU,1730235629
123,kovylkino,54.0388,43.9139,5.01,84,75,4.89,RU,1730235631
124,weno,7.4515,151.8468,28.5,75,38,4.38,FM,1730235632
125,puerto colombia,10.9878,-74.9547,32.05,75,100,3.17,CO,1730235633
126,de queen,34.0379,-94.3413,28.9,29,7,6.01,US,1730235634
127,new norfolk,-42.7826,147.0587,11.51,69,100,1.59,AU,1730235635
128,hermanus,-34.4187,19.2345,15.45,86,0,2.99,ZA,1730235636
129,newnham,-41.3833,147.1333,8.53,87,100,2.57,AU,1730235637
130,khamis mushait,18.3064,42.7292,18.34,68,0,4.12,SA,1730235639
131,xudat,41.631,48.681,9.39,77,5,1.68,AZ,1730235640
132,tolanaro,-25.0319,46.9987,25.04,83,40,11.83,MG,1730235641
133,mbaiki,3.8678,17.9892,21.47,98,47,1.18,CF,1730235642
134,hawaiian paradise park,19.5933,-154.9731,27.16,79,75,1.54,US,1730235526
135,ust-nera,64.5667,143.2,-20.71,100,96,1.05,RU,1730235645
136,jaragua,-15.7569,-49.3344,25.16,72,83,1.24,BR,1730235646
137,sirte,31.2089,16.5887,21.1,72,0,4.29,LY,1730235647
138,longyearbyen,78.2186,15.6401,-4.09,93,75,2.57,SJ,1730235648
139,tiksi,71.6872,128.8694,-23.64,100,86,1.62,RU,1730235649
140,qaisumah,28.3112,46.1273,17.98,34,0,2.57,SA,1730235650
141,east london,-33.0153,27.9116,17.51,72,98,12.75,ZA,1730235633
142,saipan,15.1355,145.701,28.51,78,27,8.73,MP,1730235653
143,aykhal,66.0,111.5,-23.3,100,100,2.57,RU,1730235654
144,mpika,-11.8343,31.4529,18.51,87,94,0.72,ZM,1730235655
145,uludere,37.445,42.8617,8.37,30,100,1.31,TR,1730235656
146,taichung,24.1469,120.6839,22.7,77,40,8.23,TW,1730235657
147,polyarnyy,69.1989,33.4478,-0.16,68,79,8.07,RU,1730235658
148,port elizabeth,-33.918,25.5701,16.29,92,40,13.89,ZA,1730235659
149,mount gambier,-37.8333,140.7667,10.14,92,26,0.78,AU,1730235661
150,maxixe,-23.8597,35.3472,24.44,94,98,3.55,MZ,1730235662
151,marco island,25.9363,-81.7157,28.89,64,24,7.24,US,1730235663
152,hammerfest,70.6634,23.6821,2.25,60,20,4.63,NO,1730235664
153,dhidhdhoo,6.8833,73.1,27.9,79,70,5.14,MV,1730235665
154,alo,6.5486,4.2686,25.81,87,24,2.37,NG,1730235667
155,nyala,12.05,24.8833,26.39,19,0,3.47,SD,1730235669
156,mantua,45.1667,10.7833,14.99,96,0,0.45,IT,1730235670
157,metlili chaamba,32.2667,3.6333,24.52,36,40,2.06,DZ,1730235672
158,eustis,28.8528,-81.6853,28.32,69,84,4.02,US,1730235674
159,college,64.8569,-147.8028,-4.03,70,100,4.63,US,1730235388
160,richards bay,-28.783,32.0377,18.63,82,5,2.48,ZA,1730235676
161,chandler,33.3062,-111.8412,23.71,28,0,5.14,US,1730235395
162,klyuchi,52.2667,79.1667,0.6,83,99,2.79,RU,1730235678
163,diffa,13.3154,12.6113,27.03,14,0,3.91,NE,1730235679
164,qaqortoq,60.7167,-46.0333,-1.93,72,79,4.03,GL,1730235681
165,port mathurin,-19.6833,63.4167,23.23,80,10,4.14,MU,1730235682
166,nogliki,51.8333,143.1667,-1.63,88,28,2.65,RU,1730235683
167,stanthorpe,-28.6667,151.95,13.57,99,68,2.32,AU,1730235685
168,piracanjuba,-17.3028,-49.0167,22.79,79,89,0.97,BR,1730235686
169,paramonga,-10.6667,-77.8333,19.82,76,16,5.46,PE,1730235687
170,lee acres,35.1487,-106.647,22.51,31,75,8.75,US,1730235689
171,abadan,30.3392,48.3043,13.97,38,0,1.03,IR,1730235690
172,bor,56.3567,44.0669,4.96,76,100,6.21,RU,1730235691
173,ancud,-41.8697,-73.8203,15.79,69,100,1.7,CL,1730235465
174,atafu village,-8.5421,-172.5159,27.75,78,21,5.63,TK,1730235693
175,sao martinho,39.5144,-9.1311,18.3,75,53,2.24,PT,1730235694
176,laguna,38.421,-121.4238,20.53,37,0,6.17,US,1730235696
177,pacific grove,36.6177,-121.9166,18.14,83,0,3.58,US,1730235677
178,chaykovskiy,56.7686,54.1148,3.04,83,100,3.55,RU,1730235698
179,hamilton,39.1834,-84.5333,26.47,55,0,6.17,US,1730235699
180,seydi,39.4816,62.9137,9.53,51,0,1.82,TM,1730235700
181,iwaki,37.05,140.8833,14.25,95,100,3.22,JP,1730235701
182,edeia,-17.3383,-49.9314,25.22,77,100,0.19,BR,1730235702
183,selfoss,63.9331,-20.9971,4.47,80,85,11.63,IS,1730235703
184,labytnangi,66.6572,66.4183,-9.87,95,100,0.57,RU,1730235705
185,troitskiy,57.0603,63.7481,0.73,86,100,2.17,RU,1730235706
186,rio gallegos,-51.6226,-69.2181,15.03,47,20,11.32,AR,1730235707
187,baotou,40.6522,109.8222,9.18,49,83,1.84,CN,1730235708
188,verkhnevilyuysk,63.4453,120.3167,-24.93,100,100,0.18,RU,1730235709
189,nemuro,43.3236,145.575,11.05,66,74,1.17,JP,1730235710
190,salta,-24.7859,-65.4117,30.88,35,20,3.09,AR,1730235711
191,maceio,-9.6658,-35.7353,25.69,73,0,3.6,BR,1730235617
192,badger,64.8,-147.5333,-4.45,86,100,2.13,US,1730235714
193,kristiansund,63.1115,7.732,9.36,71,75,16.46,NO,1730235715
194,naranjal,-2.6667,-79.6167,28.76,64,48,2.97,EC,1730235716
195,wynyard,-41.0,145.7167,12.88,73,100,5.51,AU,1730235717
196,derbent,42.0678,48.2899,11.83,71,4,2.34,RU,1730235505
197,belmonte,-15.8631,-38.8828,24.87,78,3,3.09,BR,1730235720
198,kayangel,8.0823,134.7173,29.22,75,100,4.31,PW,1730235721
199,dudinka,69.4058,86.1778,-18.32,100,84,1.76,RU,1730235722
200,vila velha,-20.3297,-40.2925,22.97,91,100,3.6,BR,1730235723
201,lorengau,-2.0226,147.2712,27.72,76,89,2.34,PG,1730235724
202,saint-joseph,-21.3667,55.6167,23.21,86,31,4.57,RE,1730235725
203,lata,40.1629,-8.3327,15.01,72,81,2.63,PT,1730235726
204,nova sintra,14.8667,-24.7167,25.48,74,100,6.95,CV,1730235728
205,k'olito,7.3167,38.0833,16.56,91,93,1.16,ET,1730235729
206,patacamaya,-17.2333,-67.9167,13.48,53,59,3.45,BO,1730235730
207,viedma,-40.8135,-62.9967,28.31,16,78,6.6,AR,1730235604
208,tindouf,27.6711,-8.1474,19.25,45,0,3.6,DZ,1730235732
209,coahuayana de hidalgo,18.7,-103.6583,31.18,63,3,2.71,MX,1730235733
210,karasburg,-28.0167,18.75,18.7,40,2,1.66,NA,1730235734
211,lompoc,34.6391,-120.4579,21.12,59,0,7.2,US,1730235597
212,talnakh,69.4865,88.3972,-15.89,95,36,3.19,RU,1730235737
213,torbat-e jam,35.244,60.6225,8.56,56,0,0.87,IR,1730235738
214,motygino,58.1831,94.7592,1.27,98,100,3.19,RU,1730235739
215,mount pearl,47.5166,-52.7813,3.41,92,100,5.14,CA,1730235740
216,kurumkan,54.3,110.3,-0.88,93,100,1.2,RU,1730235741
217,minggang,32.4586,114.0486,14.02,69,9,2.86,CN,1730235744
218,lozova,48.8894,36.3176,6.46,63,15,2.96,UA,1730235745
219,yaritagua,10.08,-69.1261,32.59,72,99,2.97,VE,1730235746
220,saguenay,48.4168,-71.0657,6.46,48,75,6.17,CA,1730235748
221,ust'-kulom,61.6864,53.6902,1.52,97,100,2.77,RU,1730235752
222,punta arenas,-53.15,-70.9167,10.06,62,40,12.86,CL,1730235753
223,baruun-urt,46.6806,113.2792,1.73,76,100,3.49,MN,1730235754
224,ust'-kut,56.7938,105.7672,0.91,99,100,1.16,RU,1730235755
225,yashkul',46.1711,45.3435,10.2,93,100,2.13,RU,1730235759
226,island harbour,50.724,-1.2758,13.88,71,99,1.66,GB,1730235760
227,lerwick,60.1545,-1.1494,9.35,73,77,8.5,GB,1730235761
228,egilsstadir,65.2653,-14.3948,5.95,56,75,8.75,IS,1730235763
229,happy valley-goose bay,53.3168,-60.3315,0.17,69,40,2.57,CA,1730235764
230,itamaraca,-7.7478,-34.8256,25.05,73,93,4.56,BR,1730235765
231,afaahiti,-17.75,-149.2833,23.09,66,32,6.32,PF,1730235766
232,suhut,38.5311,30.5458,8.5,63,0,2.17,TR,1730235767
233,razole,16.4833,81.8333,25.32,84,5,0.48,IN,1730235768
234,newman,37.3138,-121.0208,19.47,38,0,4.02,US,1730235769
235,usinsk,65.9939,57.5281,-0.48,98,100,6.63,RU,1730235770
236,petropavlovsk-kamchatsky,53.0452,158.6483,3.33,41,40,13.0,RU,1730235772
237,zhezqazghan,47.7833,67.7667,1.8,83,43,3.0,KZ,1730235773
238,new plymouth,-39.0667,174.0833,11.84,100,23,2.85,NZ,1730235774
239,lerma,42.0261,-3.7598,12.33,85,94,2.75,ES,1730235775
240,tobelo,1.7284,128.0095,27.49,79,100,1.84,ID,1730235776
241,acapulco de juarez,16.8634,-99.8901,27.34,64,98,2.05,MX,1730235624
242,jinka,5.65,36.65,17.87,85,30,1.41,ET,1730235780
243,port moresby,-9.4431,147.1797,23.68,94,40,1.03,PG,1730235781
244,bilibino,68.0546,166.4372,-23.63,99,16,2.15,RU,1730235782
245,xining,36.6167,101.7667,4.89,81,37,0.7,CN,1730235783
246,ericeira,38.9627,-9.4156,19.64,81,82,3.86,PT,1730235784
247,lhokseumawe,5.1801,97.1507,25.4,87,100,2.33,ID,1730235786
248,nagqu,31.5,92.0,-0.04,28,86,0.76,CN,1730235787
249,la cruz,23.9167,-106.9,30.45,57,0,4.67,MX,1730235788
250,taruma,-22.7467,-50.5772,30.15,31,0,1.47,BR,1730235789
251,villamontes,-21.25,-63.5,38.69,25,20,0.0,BO,1730235790
252,saudarkrokur,65.7461,-19.6394,1.84,92,98,4.11,IS,1730235791
253,la'ie,21.6477,-157.9253,25.66,92,95,0.89,US,1730235794
254,hirara,24.8,125.2833,27.15,94,75,9.77,JP,1730235795
255,st. john's,47.5649,-52.7093,3.87,92,100,5.14,CA,1730235594
256,kodiak,57.79,-152.4072,5.73,49,0,18.01,US,1730235797
257,longquan,24.6719,102.1613,13.85,93,0,1.41,CN,1730235798
258,san andres,12.5847,-81.7006,24.01,100,40,1.03,CO,1730235799
259,amahai,-3.3333,128.9167,25.67,83,73,2.04,ID,1730235800
260,constantia,44.1833,28.65,7.38,62,0,3.83,RO,1730235802
261,jalgaon,21.0167,75.5667,23.46,58,0,1.15,IN,1730235632
262,ardestan,33.3761,52.3694,11.98,40,0,1.41,IR,1730235804
263,tocopilla,-22.092,-70.1979,19.9,69,40,5.3,CL,1730235805
264,quellon,-43.1167,-73.6167,14.0,71,100,5.35,CL,1730235806
265,americus,32.0724,-84.2327,24.07,53,0,3.09,US,1730235807
266,nadi,-17.8,177.4167,28.0,61,75,0.0,FJ,1730235808
267,itacarambi,-15.1022,-44.0919,28.93,48,53,2.71,BR,1730235809
268,khovd,48.0056,91.6419,0.11,48,14,2.42,MN,1730235811
269,ayorou,14.7308,0.9174,30.99,11,100,4.06,NE,1730235812
270,fale old settlement,-9.3852,-171.2468,28.18,77,14,6.42,TK,1730235814
271,sisimiut,66.9395,-53.6735,-9.09,65,10,5.14,GL,1730235815
272,touros,-5.1989,-35.4608,25.43,72,87,6.58,BR,1730235816
273,soto la marina,23.7667,-98.2167,32.09,45,5,8.3,MX,1730235817
274,sergeyevka,53.88,67.4158,-0.86,93,49,2.61,KZ,1730235820
275,roma,43.2128,-75.4557,12.08,87,100,3.6,US,1730235821
276,mil'kovo,55.6078,37.7956,3.13,48,9,2.89,RU,1730235823
277,kismayo,-0.3582,42.5454,25.52,83,39,6.29,SO,1730235824
278,zhanaozen,43.3,52.8,7.56,75,3,2.59,KZ,1730235825
279,kourou,5.1552,-52.6478,27.08,74,100,3.81,GF,1730235827
280,kayenta,36.7278,-110.2546,9.63,37,0,10.98,US,1730235828
281,alice,27.7523,-98.0697,30.94,58,75,9.77,US,1730235829
282,ouddorp,51.8117,3.9347,13.32,89,100,3.24,NL,1730235830
283,katsuura,35.1333,140.3,15.81,95,100,10.92,JP,1730235831
284,praia da vitoria,38.7333,-27.0667,19.14,88,40,4.75,PT,1730235832
285,winnemucca,40.973,-117.7357,6.28,40,67,4.28,US,1730235833
286,gurjaani,41.7429,45.8011,7.83,67,49,1.45,GE,1730235835
287,flying fish cove,-10.4217,105.6791,24.82,88,20,3.6,CX,1730235836
288,ingeniero jacobacci,-41.3427,-69.5448,29.47,8,63,7.02,AR,1730235837
289,bairnsdale,-37.8333,147.6167,12.81,90,32,2.72,AU,1730235838
290,tralee,52.2704,-9.7026,12.48,93,88,1.15,IE,1730235839
291,suhbaatar,50.2314,106.2078,2.06,82,100,1.28,MN,1730235840
292,haiku-pauwela,20.9219,-156.3051,27.01,73,20,11.62,US,1730235841
293,tokar,18.4254,37.729,29.6,72,38,3.86,SD,1730235842
294,mitu,1.1983,-70.1733,26.03,95,100,1.02,CO,1730235844
295,bima,-8.4667,118.7167,24.91,89,7,1.51,ID,1730235845
296,tegueste,28.5167,-16.3167,17.21,86,20,4.92,ES,1730235846
297,yanai,33.9667,132.1167,16.0,90,67,2.84,JP,1730235847
298,natal,-5.795,-35.2094,27.12,69,20,8.23,BR,1730235615
299,beltran,-27.8291,-64.061,37.08,17,0,4.3,AR,1730235851
300,charles city,43.0664,-92.6724,27.77,47,20,10.29,US,1730235852
301,n'zeto,-7.2312,12.8666,25.03,79,82,4.03,AO,1730235853
302,yuzhno-kurilsk,44.0306,145.8556,7.35,78,96,0.23,RU,1730235854
303,bodaybo,57.8506,114.1933,-5.94,97,99,0.75,RU,1730235855
304,sa'dah,16.9402,43.7639,18.52,50,14,1.25,YE,1730235856
305,strezhevoy,60.7333,77.5889,-0.88,97,100,4.14,RU,1730235857
306,utrik,11.2278,169.8474,28.41,77,68,6.72,MH,1730235859
307,paredon,16.0333,-93.8667,30.24,67,100,4.38,MX,1730235860
308,santo tomas,14.1079,121.1414,25.32,88,100,4.71,PH,1730235861
309,plavsk,53.7094,37.2919,4.15,94,32,2.9,RU,1730235862
310,illizi,26.4833,8.4667,27.05,18,10,5.1,DZ,1730235863
311,fort st. john,56.2499,-120.8529,-1.06,80,75,2.57,CA,1730235864
312,lebu,-37.6167,-73.65,15.12,72,66,2.29,CL,1730235865
313,caldwell,43.6629,-116.6874,13.08,40,0,5.66,US,1730235770
314,nguigmi,14.2495,13.1092,26.92,16,0,5.35,NE,1730235868
315,nola,40.922,14.5329,18.35,89,23,0.54,IT,1730235869
316,prairie du chien,43.0517,-91.1412,27.58,44,0,4.12,US,1730235870
317,chesterton,41.6106,-87.0642,27.24,51,0,8.75,US,1730235871
318,gondar,12.6,37.4667,14.23,90,100,1.51,ET,1730235872
319,palmer,42.1584,-72.3287,12.51,58,100,4.12,US,1730235874
320,northam,51.0333,-4.2167,12.56,94,25,1.79,GB,1730235875
321,petrovsk,52.3064,45.3917,6.38,78,100,4.48,RU,1730235876
322,ladan,50.5196,32.5818,5.98,74,60,2.2,UA,1730235877
323,la ronge,55.1001,-105.2842,-0.86,74,100,3.09,CA,1730235879
324,abepura,-2.6333,140.5833,23.45,94,20,0.51,ID,1730235881
325,vadso,70.0744,29.7487,1.09,69,0,5.14,NO,1730235882
326,whangarei,-35.7317,174.3239,13.46,76,81,2.78,NZ,1730235883
327,ola,59.5833,151.2833,-7.79,65,100,5.49,RU,1730235884
328,barra,-11.0894,-43.1417,30.36,32,41,3.07,BR,1730235885
329,holualoa,19.6228,-155.9522,27.13,78,40,3.6,US,1730235886
330,puerto quijarro,-17.7833,-57.7667,30.29,60,73,1.18,BO,1730235887
331,tatarsk,55.219,75.9828,0.29,82,100,3.5,RU,1730235889
332,wainwright,52.839,-110.8572,3.26,50,7,3.29,CA,1730235890
333,camana,-16.6228,-72.7111,18.5,78,10,2.84,PE,1730235891
334,ilha de mocambique,-15.0342,40.7358,26.1,82,1,8.55,MZ,1730235892
335,port saint john's,-31.6229,29.5448,20.71,57,100,8.25,ZA,1730235893
336,manicore,-5.8092,-61.3003,39.73,18,61,1.51,BR,1730235894
337,menongue,-14.6585,17.691,21.35,36,48,1.68,AO,1730235895
338,manokwari,-0.8667,134.0833,26.82,74,65,2.36,ID,1730235897
339,otuzco,-7.9,-78.5833,14.44,55,75,2.52,PE,1730235898
340,tshabong,-26.05,22.45,17.15,40,0,4.56,BW,1730235899
341,pauini,-7.7136,-66.9764,35.12,37,38,2.19,BR,1730235900
342,cadale,2.7603,46.3222,25.65,80,2,4.04,SO,1730235901
343,el fasher,13.6279,25.3494,26.15,14,1,4.23,SD,1730235902
344,arraial do cabo,-22.9661,-42.0278,21.92,100,100,2.57,BR,1730235903
345,gumdag,39.2061,54.5906,12.07,45,0,3.5,TM,1730235905
346,marshall,34.3834,-86.3333,25.86,60,20,2.06,US,1730235906
347,ushtobe,45.2514,77.9838,4.93,60,100,2.69,KZ,1730235907
348,greymouth,-42.4667,171.2,10.74,87,96,0.88,NZ,1730235908
349,kruisfontein,-34.0033,24.7314,13.99,82,7,6.12,ZA,1730235909
350,al hufuf,25.3646,49.5653,22.19,33,0,1.54,SA,1730235910
351,almodovar del campo,38.7094,-4.1791,11.21,91,87,1.65,ES,1730235911
352,nahiyat ash shinafiyah,31.5874,44.6602,20.63,24,10,1.25,IQ,1730235913
353,nueva gerona,21.8833,-82.8,28.28,69,100,5.32,CU,1730235914
354,machico,32.7,-16.7667,20.56,71,40,2.06,PT,1730235915
355,benghazi,32.1167,20.0667,21.54,66,0,5.57,LY,1730235916
356,bonanza,14.0289,-84.591,21.8,99,100,1.0,NI,1730235917
357,port-vila,-17.7338,168.3219,23.78,94,75,0.51,VU,1730235918
358,monte argentario,42.4345,11.1195,18.41,77,13,2.3,IT,1730235919
359,taixing,32.1667,120.0136,11.68,86,61,2.97,CN,1730235637
360,birao,10.2849,22.7882,25.73,28,0,1.61,CF,1730235922
361,guatire,10.4762,-66.5427,25.66,92,92,1.21,VE,1730235923
362,coquimbo,-29.9533,-71.3436,18.32,62,40,3.6,CL,1730235924
363,lashio,22.9333,97.75,17.18,99,19,0.43,MM,1730235925
364,tazacorte,28.629,-17.9293,20.54,84,20,3.09,ES,1730235926
365,baharly,38.4362,57.4316,12.41,53,0,1.92,TM,1730235927
366,nishinoomote,30.7333,131.0,23.67,84,100,7.99,JP,1730235929
367,bayanhongor,46.7167,100.1167,-8.99,92,99,1.64,MN,1730235930
368,katabu,-4.9333,122.5167,24.02,95,53,1.46,ID,1730235931
369,mrakovo,52.7161,56.6244,-0.6,71,7,1.02,RU,1730235932
370,bulgan,48.8125,103.5347,3.06,63,100,1.75,MN,1730235933
371,toliara,-23.35,43.6667,26.22,67,77,2.18,MG,1730235934
372,baardheere,2.3446,42.2764,27.59,59,82,5.02,SO,1730235935
373,sierra grande,-41.606,-65.3557,27.77,11,100,8.88,AR,1730235937
374,tongliao,43.6125,122.2653,5.04,84,0,0.68,CN,1730235938
375,kasba,25.85,87.55,26.08,74,76,1.87,IN,1730235939
376,hotan,37.0997,79.9269,12.67,45,100,0.78,CN,1730235940
377,south grafton,-29.7,152.95,19.15,75,4,0.71,AU,1730235941
378,alice springs,-23.7,133.8833,18.75,30,100,1.54,AU,1730235942
379,labrador city,52.9463,-66.9114,-2.12,66,20,30.4,CA,1730235943
380,conception bay south,47.4999,-52.9981,3.74,91,100,4.91,CA,1730235944
381,coihueco,-36.6167,-71.8333,26.41,50,0,2.57,CL,1730235946
382,kolonia town,6.964,158.206,28.51,78,100,6.37,FM,1730235947
383,kapa'a,22.0752,-159.319,27.33,81,75,7.2,US,1730235948
384,kill devil hills,36.0307,-75.676,19.99,75,0,2.06,US,1730235949
385,vilyuysk,63.7553,121.6247,-26.29,100,51,0.36,RU,1730235950
386,herkimer,43.0256,-74.986,13.32,79,100,5.05,US,1730235951
387,dompu,-8.5356,118.4622,24.68,91,3,0.6,ID,1730235952
388,ta`u,-14.2336,-169.5144,26.81,72,46,8.39,AS,1730235954
389,zelenokumsk,44.4069,43.8806,9.4,80,74,2.67,RU,1730235955
390,adrar,20.5022,-10.0711,26.41,26,12,4.0,MR,1730235956
391,punasa,22.2333,76.4,22.6,59,0,0.27,IN,1730235957
392,buxar,25.5833,83.9833,27.5,59,100,1.85,IN,1730235958
393,talakan,50.3167,130.3667,1.1,83,95,1.09,RU,1730235959
394,gaigeturi,33.4644,126.3183,19.03,72,75,3.09,KR,1730235960
395,palasa,18.7667,84.4167,23.88,92,7,1.13,IN,1730235962
396,minas de marcona,-15.2119,-75.1103,17.82,59,9,6.95,PE,1730235963
397,bolu,40.6667,31.5833,8.15,93,4,1.2,TR,1730235964
398,kota kinabalu,5.9749,116.0724,26.99,89,20,1.03,MY,1730235966
399,salalah,17.0151,54.0924,26.05,50,0,2.06,OM,1730235967
400,turabah,21.2141,41.6331,22.97,45,73,6.27,SA,1730235969
401,mityana,0.4175,32.0228,17.94,84,35,0.61,UG,1730235970
402,berezovyy,51.6667,135.7,-2.36,83,25,1.84,RU,1730235971
403,saint-pierre,-21.3393,55.4781,23.82,73,0,4.12,RE,1730235972
404,tadine,-21.55,167.8833,22.43,70,100,5.6,NC,1730235974
405,sampit,-2.5333,112.95,23.83,96,70,0.62,ID,1730235976
406,valley city,46.9233,-98.0032,13.29,47,75,6.69,US,1730235977
407,shimanovsk,52.0,127.7,-1.41,81,24,1.85,RU,1730235978
408,brattleboro,42.8509,-72.5579,10.04,69,100,2.24,US,1730235981
409,geraldton,-28.7667,114.6,16.23,94,75,3.6,AU,1730235982
410,petershagen,52.3833,8.9667,13.64,94,75,2.57,DE,1730235984
411,salmon arm,50.6998,-119.3024,7.62,65,61,0.51,CA,1730235985
412,prado,-17.3411,-39.2208,25.05,80,96,3.77,BR,1730235986
413,chibougamau,49.9168,-74.3659,4.79,48,100,6.17,CA,1730235987
414,tukrah,32.5341,20.5791,20.69,68,3,4.88,LY,1730235988
415,kalach-na-donu,48.691,43.5264,9.71,80,100,3.22,RU,1730235989
416,sokoni,-6.4333,39.55,26.39,85,0,3.9,TZ,1730235990
417,dauphin,51.1494,-100.0502,8.08,57,40,1.03,CA,1730235992
418,essaouira,31.5125,-9.77,18.72,72,20,3.6,MA,1730235993
419,karratha,-20.7377,116.8463,27.48,59,18,3.4,AU,1730235994
420,valparaiso,-33.0393,-71.6273,18.33,84,100,4.63,CL,1730235995
421,yemetsk,63.4721,41.7941,-0.96,94,8,2.46,RU,1730235996
422,ar rutbah,33.0381,40.2848,16.23,30,97,3.44,IQ,1730235997
423,pathein,16.7833,94.7333,24.38,90,17,2.49,MM,1730235998
424,kralendijk,12.15,-68.2667,30.99,70,40,8.23,BQ,1730236000
425,sola,-13.8833,167.55,25.99,78,97,3.1,VU,1730236001
426,colusa,39.2143,-122.0094,20.14,19,0,5.82,US,1730236002
427,nouadhibou,20.931,-17.0347,21.99,60,91,6.17,MR,1730236003
428,kudahuvadhoo,2.6708,72.8944,27.9,75,78,5.11,MV,1730236004
429,westport,41.1415,-73.3579,16.2,76,75,6.17,US,1730236005
430,big stone gap,36.8677,-82.7745,23.41,59,52,1.63,US,1730236006
431,arvayheer,46.2639,102.775,0.31,65,99,3.63,MN,1730236008
432,naze,28.3667,129.4833,23.37,95,100,1.75,JP,1730236009
433,kiunga,-6.1219,141.2906,23.8,98,99,0.3,PG,1730236010
434,jiangyin,31.9282,120.3126,12.83,83,67,2.01,CN,1730236011
435,melfi,40.9965,15.6514,12.98,85,10,0.84,IT,1730236012
436,san rafael,-34.6177,-68.3301,33.22,18,0,7.56,AR,1730236013
437,keflavik,64.0049,-22.5624,5.24,87,75,11.83,IS,1730236014
438,chakulia,22.4833,86.7167,24.09,89,5,1.29,IN,1730236016
439,crane,31.3974,-102.3501,29.16,30,0,11.63,US,1730236017
440,saldanha,-33.0117,17.9442,15.54,83,0,7.62,ZA,1730236018
441,pedernales,18.0384,-71.744,29.87,71,99,4.24,DO,1730236019
442,xinpu,34.5997,119.1594,12.77,66,61,0.71,CN,1730236020
443,vila franca do campo,37.7167,-25.4333,18.27,99,6,2.23,PT,1730236021
444,cinarli,41.4723,46.9156,7.09,50,8,3.53,AZ,1730236022
445,santana,-0.0583,-51.1817,31.1,55,40,5.14,BR,1730236023
446,chatham,51.3789,0.5279,13.96,75,100,2.38,GB,1730235738
447,usogorsk,63.4106,48.6872,2.1,81,100,2.53,RU,1730236027
448,fada,7.25,4.0667,23.17,98,14,1.37,NG,1730236028
449,mugia,43.1041,-9.2179,16.06,87,1,10.95,ES,1730236029
450,pangkalanbuun,-2.6833,111.6167,23.31,99,69,0.71,ID,1730236030
451,bargaal,11.2864,51.0773,25.21,84,1,1.96,SO,1730236033
452,hailar,49.2,119.7,0.43,75,78,4.61,CN,1730236034
453,gornozavodsk,58.3758,58.3211,-0.83,79,99,2.1,RU,1730236035
454,arzachena,41.0769,9.3887,15.69,94,43,1.91,IT,1730236036
455,ingeniero guillermo n. juarez,-23.9,-61.85,39.45,18,7,1.32,AR,1730236037
456,bel ombre,-4.6167,55.4167,26.89,72,0,1.06,SC,1730236039
457,tinghir,31.5157,-5.5343,12.15,50,0,2.37,MA,1730236040
458,turbat,26.0023,63.044,27.02,25,0,4.64,PK,1730236041
459,two rivers,44.1539,-87.5693,21.07,60,0,6.17,US,1730236042
460,srivardhan,18.0333,73.0167,25.59,84,8,2.14,IN,1730236043
461,fort stockton,30.894,-102.8793,32.03,25,0,8.75,US,1730236044
462,khandud,36.9513,72.318,1.32,78,75,1.42,AF,1730236045
463,antsiranana,-12.2787,49.2917,25.02,79,14,9.23,MG,1730236047
464,tsiombe,-25.3,45.4833,26.7,65,100,1.02,MG,1730236048
465,tubarjal,30.4999,38.216,20.41,39,5,4.49,SA,1730236049
466,fortaleza,-3.7227,-38.5247,27.34,74,0,5.14,BR,1730236050
467,san patricio,28.017,-97.5169,30.97,59,88,9.15,US,1730236051
468,susuman,62.7833,148.1667,-17.85,96,100,1.77,RU,1730236052
469,mulchen,-37.7167,-72.2333,28.65,29,51,2.76,CL,1730236053
470,yelizovo,53.1873,158.3805,4.08,41,40,13.0,RU,1730236055
471,solleftea,63.1667,17.2667,1.92,69,100,4.71,SE,1730236056
472,portland,45.5234,-122.6762,14.53,73,75,1.34,US,1730235394
473,katsuren-haebaru,26.3369,127.8719,26.21,91,75,5.66,JP,1730236059
474,ilhabela,-23.7781,-45.3581,22.26,89,77,3.39,BR,1730236060
475,koh kong,11.6175,102.9806,24.6,85,93,1.93,KH,1730236061
476,piranhas,-16.4269,-51.8222,24.64,84,99,5.59,BR,1730236063
477,puerto aysen,-45.4,-72.7,16.96,71,79,2.23,CL,1730236064
478,peniche,39.3558,-9.3811,18.09,83,60,2.45,PT,1730236065
479,fort-shevchenko,44.5086,50.263,11.93,68,99,3.59,KZ,1730236066
480,camargo,27.6667,-105.1667,31.7,12,0,3.93,MX,1730236067
481,kirensk,57.7853,108.1119,0.03,97,100,0.78,RU,1730236068
482,sleaford,52.9983,-0.4094,11.95,88,75,5.14,GB,1730236069
483,strelka,58.0728,93.0344,1.93,97,100,3.9,RU,1730236071
484,kampong cham,11.9934,105.4635,22.15,89,94,1.06,KH,1730236072
485,muroto-misakicho,33.2833,134.15,20.96,89,100,1.15,JP,1730236073
486,morant bay,17.8815,-76.4093,29.82,71,51,5.33,JM,1730236074
487,tamarin,-20.3256,57.3706,22.51,90,36,3.48,MU,1730236075
488,bodo,67.28,14.405,6.02,84,75,20.06,NO,1730236076
489,panguipulli,-39.6333,-72.3333,25.17,35,92,1.45,CL,1730236077
490,adam,22.3756,57.5233,26.81,40,0,5.23,OM,1730236079
491,tan-tan,28.438,-11.1032,17.61,74,0,2.68,MA,1730236080
492,tobol'sk,58.2,68.2667,-0.28,83,98,2.73,RU,1730236081
493,burao,9.5221,45.5336,24.13,64,2,2.02,SO,1730236082
494,lucapa,-8.4192,20.7447,21.87,76,94,1.5,AO,1730236083
495,ocean shores,46.9737,-124.1563,13.51,78,0,3.09,US,1730236084
496,fort bragg,35.139,-79.006,20.93,63,100,2.06,US,1730236085
497,ascencion de guarayos,-15.8963,-63.1881,25.35,79,77,1.62,BO,1730236087
498,chengde,40.9725,117.9361,7.44,69,59,1.21,CN,1730236088
499,perezville,26.2245,-98.4006,32.21,61,75,9.26,US,1730236089
500,calama,-22.4667,-68.9333,26.27,6,0,9.26,CL,1730236090
501,walvis bay,-22.9575,14.5053,13.72,88,0,2.33,NA,1730236091
502,aleg,17.0481,-13.9209,32.84,19,84,4.57,MR,1730236092
503,plastun,44.7561,136.2939,5.02,74,100,1.36,RU,1730236093
504,salinopolis,-0.6136,-47.3561,27.21,78,96,4.89,BR,1730236095
505,dunedin,-45.8742,170.5036,13.78,64,80,1.79,NZ,1730236097
506,kavaratti,10.5669,72.642,27.88,70,96,2.41,IN,1730236098
507,kiffa,16.6166,-11.4045,33.49,19,90,3.86,MR,1730236099
508,tual,-5.6667,132.75,28.42,74,85,2.18,ID,1730236100
509,port lincoln,-34.7333,135.8667,14.95,81,0,1.95,AU,1730236101
510,mollendo,-17.0231,-72.0147,18.04,77,6,3.06,PE,1730236103
511,pikalevo,59.5183,34.1664,1.49,89,99,3.07,RU,1730236104
512,upington,-28.4478,21.2561,17.72,39,0,3.72,ZA,1730236105
513,leava,-14.3,-178.1667,26.94,76,42,4.37,WF,1730236106
514,recani,31.2846,-4.2688,17.52,31,0,4.15,MA,1730236107
515,tattayyangarpettai,11.1333,78.45,24.41,85,91,1.79,IN,1730236108
516,okhotsk,59.3833,143.3,-11.47,73,28,7.45,RU,1730235995
517,jieyang,23.5289,116.3642,19.82,91,92,0.52,CN,1730236111
518,dharmavaram,14.4333,77.7167,26.16,68,95,3.2,IN,1730236112
519,nantucket,41.2835,-70.0995,11.06,58,75,7.2,US,1730236113
520,ouani,-12.1322,44.4258,26.25,81,0,3.0,KM,1730236114
521,angaur state,6.906,134.13,29.16,78,95,5.74,PW,1730236115
522,reserva,-24.6503,-50.8506,19.11,84,35,1.8,BR,1730236116
523,datia,25.6667,78.4667,24.71,50,0,2.19,IN,1730236117
524,ust'-dzheguta,44.0834,41.9763,7.07,73,77,2.82,RU,1730236119
525,cooper's town,26.8667,-77.5167,25.18,75,22,9.79,BS,1730236120
526,coyhaique,-45.5752,-72.0662,16.19,60,82,4.57,CL,1730236038
527,inhambane,-23.865,35.3833,24.75,93,98,3.98,MZ,1730236123
528,esmeraldas,-19.7625,-44.3139,19.48,92,100,1.26,BR,1730236124
529,farias brito,-6.9306,-39.5656,28.37,24,12,1.61,BR,1730236126
530,keningau,5.3378,116.1602,21.7,98,86,0.57,MY,1730236127
531,lindley,-27.8791,27.9135,10.68,66,0,3.88,ZA,1730236128
532,barcarena,-1.5058,-48.6258,26.03,75,73,6.28,BR,1730235969
533,nuuk,64.1835,-51.7216,-3.66,80,0,6.71,GL,1730236130
534,sarmanovo,55.2553,52.5891,3.08,80,97,5.93,RU,1730236131
535,wawa,9.9022,4.4192,26.11,47,99,1.57,NG,1730236132
536,namdrik,5.5994,168.1028,27.94,75,99,3.26,MH,1730236134
537,bikenibeu village,1.3673,173.1241,29.98,70,20,3.09,KI,1730236135
538,bouillon,49.7932,5.067,10.12,99,0,0.45,BE,1730236136
539,carutapera,-1.195,-46.02,26.51,79,79,3.39,BR,1730236137
540,kampung baharu nilai,2.8033,101.7972,26.27,92,40,1.54,MY,1730236138
541,korla,41.7597,86.1469,10.02,51,32,4.32,CN,1730236139
542,porto murtinho,-21.6989,-57.8825,34.68,40,71,1.31,BR,1730236140
543,tsengel,49.4783,100.8894,-1.05,63,76,1.71,MN,1730236142
544,nardaran,40.5561,50.0056,8.8,93,0,1.03,AZ,1730236143
545,ceeldheer,3.8488,47.1806,25.65,79,5,4.26,SO,1730236144
546,kenai,60.5544,-151.2583,2.3,90,100,0.0,US,1730235937
547,ampanihy,-24.7,44.75,26.44,54,99,0.95,MG,1730236146
