City_ID,City,Lat,Lng,Max Temp,Humidity,Cloudiness,Wind Speed,Country,Date
0,ust-nera,64.5667,143.2,-26.52,100,95,0.95,RU,1730761690
1,wynyard,-41.0,145.7167,15.23,75,9,0.45,AU,1730761691
2,hadibu,12.65,54.0333,25.76,79,12,2.44,YE,1730761692
3,keflavik,64.0049,-22.5624,10.24,93,100,11.83,IS,1730761693
4,port blair,11.6667,92.75,26.9,78,99,2.45,IN,1730761695
5,port-aux-francais,-49.35,70.2167,5.84,91,99,16.3,TF,1730761696
6,prince rupert,54.3161,-130.3201,7.14,83,57,6.82,CA,1730761697
7,petropavlovsk-kamchatsky,53.0452,158.6483,-6.67,63,20,4.0,RU,1730761698
8,strelka,58.0728,93.0344,3.61,84,100,3.45,RU,1730761699
9,hirara,24.8,125.2833,26.72,75,28,8.49,JP,1730761700
10,albany,42.6001,-73.9662,11.23,64,100,1.34,US,1730761701
11,puerto natales,-51.7236,-72.4875,6.03,78,74,4.53,CL,1730761703
12,christchurch,-43.5333,172.6333,19.07,68,100,7.72,NZ,1730761680
13,bethel,41.3712,-73.414,11.63,75,95,0.45,US,1730761705
14,punta del este,-34.9667,-54.95,18.06,92,75,4.63,UY,1730761706
15,byron bay,-28.65,153.6167,26.67,63,24,4.4,AU,1730761707
16,blackmans bay,-43.0167,147.3167,16.96,53,1,0.45,AU,1730761708
17,hammerfest,70.6634,23.6821,2.25,75,75,2.57,NO,1730761536
18,berezovyy,51.6667,135.7,-6.52,73,100,0.98,RU,1730761711
19,huatabampo,26.8333,-109.6333,26.65,24,41,5.9,MX,1730761479
20,grytviken,-54.2811,-36.5092,3.73,81,100,6.93,GS,1730761713
21,waitangi,-43.9535,-176.5597,10.24,66,69,6.82,NZ,1730761714
22,kapuskasing,49.4169,-82.4331,6.7,98,100,3.49,CA,1730761715
23,nantucket,41.2835,-70.0995,11.06,66,0,5.14,US,1730761716
24,talnakh,69.4865,88.3972,-8.35,96,77,4.03,RU,1730761717
25,crane,31.3974,-102.3501,20.0,16,93,10.71,US,1730761719
26,ushuaia,-54.8,-68.3,6.43,81,61,1.39,AR,1730761720
27,itoman,26.1247,127.6694,25.43,80,40,2.57,JP,1730761721
28,puerto ayora,-0.7393,-90.3518,20.17,73,81,5.88,EC,1730761722
29,tucuma,-0.1833,-50.05,27.08,76,17,4.96,BR,1730761723
30,olonkinbyen,70.9221,-8.7187,-1.38,90,100,11.96,SJ,1730761724
31,qaqortoq,60.7167,-46.0333,-10.1,83,21,3.44,GL,1730761725
32,thompson,55.7435,-97.8558,0.9,86,20,2.34,CA,1730761727
33,edinburgh of the seven seas,-37.0676,-12.3116,13.83,76,83,2.53,SH,1730761728
34,bankim,6.083,11.4905,20.09,71,54,0.57,CM,1730761729
35,bredasdorp,-34.5322,20.0403,12.49,62,69,3.39,ZA,1730761730
36,arraial do cabo,-22.9661,-42.0278,23.46,87,100,9.95,BR,1730761731
37,novodzhereliyevskaya,45.7737,38.6723,4.96,57,82,8.82,RU,1730761732
38,ghat,24.9647,10.1728,20.45,32,0,1.96,LY,1730761733
39,bilibino,68.0546,166.4372,-26.67,99,95,0.41,RU,1730761735
40,fort bragg,35.139,-79.006,19.95,79,0,1.54,US,1730761736
41,qaisumah,28.3112,46.1273,19.98,88,4,3.09,SA,1730761737
42,uturoa,-16.7333,-151.4333,26.56,81,93,4.78,PF,1730761738
43,west island,-12.1568,96.8225,25.99,89,40,6.17,CC,1730761739
44,udachny,66.4167,112.4,-17.54,94,100,4.02,RU,1730761740
45,port lincoln,-34.7333,135.8667,18.1,73,98,5.98,AU,1730761743
46,guelendeng,10.9176,15.5501,25.69,27,100,3.36,TD,1730761744
47,horta,38.5333,-28.6333,20.01,74,65,8.05,PT,1730761745
48,colonia,50.9333,6.95,8.96,81,73,2.83,DE,1730761509
49,maloye ganyushkino,46.6,49.2667,8.26,66,100,8.34,KZ,1730761747
50,stanley,54.868,-1.6985,9.01,87,75,0.51,GB,1730761748
51,tiksi,71.6872,128.8694,-24.86,99,75,2.51,RU,1730761749
52,susuman,62.7833,148.1667,-25.62,98,100,1.49,RU,1730761751
53,ilulissat,69.2167,-51.1,-2.99,80,100,6.69,GL,1730761752
54,mao,39.8885,4.2658,19.31,88,40,2.06,ES,1730761753
55,malanje,-9.5402,16.341,19.29,87,22,1.71,AO,1730761754
56,vorgashor,67.5833,63.95,-4.12,93,100,7.4,RU,1730761755
57,adamstown,-25.066,-130.1015,21.38,80,97,8.77,PN,1730761756
58,invercargill,-46.4,168.35,13.9,75,54,6.71,NZ,1730761604
59,vilyuchinsk,52.9306,158.4028,-5.85,73,48,2.98,RU,1730761760
60,ballina,-28.8667,153.5667,25.42,69,23,2.55,AU,1730761761
61,kailua-kona,19.6406,-155.9956,30.54,69,40,2.57,US,1730761762
62,klyuchi,52.2667,79.1667,1.36,64,100,3.6,RU,1730761763
63,nar'yan-mar,67.6713,53.087,-2.77,93,100,3.49,RU,1730761764
64,kuanda,56.3161,116.0806,-18.94,96,62,0.27,RU,1730761766
65,whitehorse,60.7161,-135.0538,0.05,74,100,1.79,CA,1730761767
66,vel'sk,61.0701,42.0983,-2.37,86,100,4.18,RU,1730761768
67,formosa do rio preto,-11.0483,-45.1931,30.16,36,100,2.34,BR,1730761769
68,cidreira,-30.1811,-50.2056,21.65,86,50,9.43,BR,1730761770
69,namibe,-15.1961,12.1522,19.82,77,58,2.04,AO,1730761771
70,bayanga,7.5214,124.2522,22.47,90,97,0.82,PH,1730761772
71,kerikeri,-35.2268,173.9474,18.56,45,0,2.31,NZ,1730761774
72,minab,27.1467,57.0801,25.65,69,0,0.52,IR,1730761775
73,vernon,50.2581,-119.2691,6.63,84,100,1.79,CA,1730761776
74,mount gambier,-37.8333,140.7667,16.41,51,3,1.95,AU,1730761777
75,lihue,21.9789,-159.3672,28.77,72,20,5.66,US,1730761778
76,puerto gaitan,4.3133,-72.0816,25.49,83,100,2.95,CO,1730761779
77,kuta,-8.7233,115.1723,25.97,94,20,1.54,ID,1730761780
78,hilo,19.7297,-155.09,24.51,100,100,5.36,US,1730761774
79,hamilton,39.1834,-84.5333,23.56,64,75,3.6,US,1730761783
80,longyearbyen,78.2186,15.6401,-5.09,68,20,5.14,SJ,1730761784
81,hasaki,35.7333,140.8333,19.56,67,89,5.14,JP,1730761785
82,ribeira grande,38.5167,-28.7,20.43,74,58,8.05,PT,1730761786
83,huarmey,-10.0681,-78.1522,19.58,82,29,4.73,PE,1730761787
84,ampanihy,-24.7,44.75,22.59,79,0,2.5,MG,1730761788
85,iqaluit,63.7506,-68.5145,-11.53,91,55,1.32,CA,1730761789
86,vadso,70.0744,29.7487,0.09,86,75,6.17,NO,1730761791
87,viveiro,43.6623,-7.5934,15.13,87,100,2.54,ES,1730761792
88,arteche,12.2645,125.4048,25.09,93,98,1.84,PH,1730761793
89,yellowknife,62.456,-114.3525,-1.99,100,89,2.24,CA,1730761794
90,lata,40.1629,-8.3327,14.5,94,93,2.45,PT,1730761796
91,port mathurin,-19.6833,63.4167,23.68,79,82,5.7,MU,1730761798
92,malungun,6.2792,125.2817,25.91,81,51,1.15,PH,1730761799
93,bamako,12.65,-8.0,25.23,50,43,2.57,ML,1730761800
94,mount isa,-20.7333,139.5,31.87,48,6,3.6,AU,1730761801
95,san felipe,10.3399,-68.7425,22.63,93,100,1.61,VE,1730761802
96,masterton,-40.9597,175.6575,18.5,63,67,3.6,NZ,1730761803
97,heniches'k,46.1759,34.8034,4.02,61,6,9.3,UA,1730761807
98,margaret river,-33.95,115.0667,15.59,73,68,8.1,AU,1730761808
99,sanand,22.9833,72.3833,24.12,39,0,2.61,IN,1730761809
100,arkhangel'sk,64.5401,40.5433,-0.94,100,40,3.0,RU,1730761810
101,lebu,-37.6167,-73.65,12.14,79,52,1.07,CL,1730761811
102,nova sintra,14.8667,-24.7167,26.77,78,76,4.53,CV,1730761812
103,howrah,22.5892,88.3103,25.0,88,20,1.54,IN,1730761814
104,kodiak,57.79,-152.4072,3.73,60,100,3.6,US,1730761815
105,raipur,21.2333,81.6333,19.11,49,0,1.68,IN,1730761604
106,atafu village,-8.5421,-172.5159,28.18,73,100,6.09,TK,1730761817
107,la tuque,47.4334,-72.7824,1.83,81,100,3.77,CA,1730761818
108,portland,45.5234,-122.6762,13.35,90,40,4.12,US,1730761353
109,jalalaqsi,3.3766,45.5996,24.39,87,46,2.82,SO,1730761821
110,goundam,16.4145,-3.6708,28.19,15,57,4.05,ML,1730761822
111,lospalos,-8.5186,127.0025,25.52,74,100,4.44,TL,1730761823
112,anadyr,64.75,177.4833,-8.72,85,0,9.0,RU,1730761824
113,tazacorte,28.629,-17.9293,20.54,84,40,2.57,ES,1730761826
114,kirensk,57.7853,108.1119,-10.91,94,93,1.13,RU,1730761828
115,lerwick,60.1545,-1.1494,10.57,82,100,2.05,GB,1730761829
116,alaghsas,17.0187,8.0168,23.62,20,0,4.85,NE,1730761830
117,galesong,-5.3166,119.3661,26.48,69,58,2.49,ID,1730761831
118,taltal,-25.4,-70.4833,18.24,71,25,2.21,CL,1730761832
119,port saint john's,-31.6229,29.5448,13.95,88,100,7.55,ZA,1730761833
120,enewetak,11.3474,162.3373,27.72,80,99,5.39,MH,1730761834
121,east porterville,36.0574,-118.9757,21.9,30,0,1.54,US,1730761836
122,paratinga,-12.6906,-43.1842,29.49,41,100,2.69,BR,1730761837
123,cabo san lucas,22.8909,-109.9124,25.98,44,4,3.13,MX,1730761235
124,codrington,-38.2667,141.9667,16.1,55,2,2.26,AU,1730761840
125,ebaye,8.7748,167.7392,26.83,78,99,1.65,MH,1730761841
126,st. john's,47.5649,-52.7093,2.21,68,99,2.68,CA,1730761842
127,geraldton,-28.7667,114.6,19.23,52,100,2.57,AU,1730761843
128,haiku-pauwela,20.9219,-156.3051,29.01,77,40,11.62,US,1730761845
129,borgarnes,64.5383,-21.9206,5.69,90,100,3.0,IS,1730761846
130,karratha,-20.7377,116.8463,31.51,25,2,4.48,AU,1730761745
131,tuszyn,51.6095,19.5301,2.2,100,4,0.0,PL,1730761848
132,sitka,57.0531,-135.33,6.94,70,100,3.6,US,1730761849
133,hawaiian paradise park,19.5933,-154.9731,24.39,100,100,4.12,US,1730761853
134,castillos,-34.1667,-53.8333,19.06,88,99,6.99,UY,1730761854
135,tehran,35.6944,51.4215,14.99,62,40,0.0,IR,1730761668
136,bayevo,53.2833,80.7667,1.46,64,100,4.07,RU,1730761856
137,uyuni,-20.4597,-66.825,15.05,7,0,0.94,BO,1730761857
138,callao,-12.0667,-77.15,20.16,77,0,6.69,PE,1730761598
139,polyarnyy,69.1989,33.4478,-1.31,87,71,9.2,RU,1730761859
140,aasiaat,68.7098,-52.8699,-7.33,95,100,1.49,GL,1730761861
141,papatowai,-46.5619,169.4708,14.37,62,50,4.58,NZ,1730761863
142,amga,60.8953,131.9608,-28.03,100,98,0.35,RU,1730761864
143,wailua homesteads,22.0669,-159.378,28.44,80,20,5.66,US,1730761865
144,georgetown,5.4112,100.3354,25.96,83,20,1.54,MY,1730761866
145,tommot,58.9564,126.2925,-16.69,99,100,0.83,RU,1730761868
146,kasane,-17.8167,25.15,27.6,30,91,1.71,BW,1730761869
147,utrik,11.2278,169.8474,27.55,77,100,2.74,MH,1730761870
148,badger,64.8,-147.5333,-6.12,89,100,2.57,US,1730761871
149,northam,51.0333,-4.2167,12.01,93,100,4.9,GB,1730761872
150,port alfred,-33.5906,26.891,11.21,97,100,6.66,ZA,1730761873
151,khandyga,62.6667,135.6,-25.33,100,74,0.53,RU,1730761874
152,punta arenas,-53.15,-70.9167,9.06,61,75,9.77,CL,1730761876
153,port elizabeth,-33.918,25.5701,12.4,99,100,1.34,ZA,1730761877
154,carnarvon,-24.8667,113.6333,19.96,70,1,7.65,AU,1730761878
155,avanigadda,16.0215,80.9181,24.97,90,14,2.21,IN,1730761879
156,lazaro cardenas,17.9583,-102.2,28.36,73,6,3.03,MX,1730761880
157,selfoss,63.9331,-20.9971,8.91,95,100,4.61,IS,1730761881
158,chipinge,-20.1883,32.6236,17.64,61,0,1.87,ZW,1730761882
159,concepcion del bermejo,-26.5993,-60.9462,28.61,58,85,2.45,AR,1730761883
160,laibin,23.7,109.2667,19.93,59,100,4.28,CN,1730761885
161,coahuayana de hidalgo,18.7,-103.6583,28.01,76,54,2.11,MX,1730761886
162,karasuk,53.7377,78.0403,-1.23,68,42,4.57,RU,1730761887
163,khovd,48.0056,91.6419,-1.43,66,49,0.66,MN,1730761888
164,chulym,55.0997,80.9572,-0.97,71,63,5.25,RU,1730761889
165,dryden,49.7833,-92.7503,6.17,87,100,4.25,CA,1730761890
166,jamestown,42.097,-79.2353,14.8,54,0,6.17,US,1730761891
167,prado,-17.3411,-39.2208,24.07,84,29,4.09,BR,1730761893
168,mumbwa,-14.9783,27.0619,20.69,70,13,2.22,ZM,1730761894
169,hermanus,-34.4187,19.2345,13.1,67,50,5.16,ZA,1730761896
170,pangody,65.85,74.4859,-6.91,95,100,5.76,RU,1730761897
171,challapata,-18.9,-66.7667,17.64,19,15,2.01,BO,1730761898
172,yeed,4.55,43.0333,27.19,61,96,5.72,SO,1730761899
173,isafjordur,66.0755,-23.124,2.04,88,100,2.04,IS,1730761901
174,sao jose da coroa grande,-8.8978,-35.1478,25.07,66,35,3.63,BR,1730761902
175,iskateley,67.6803,53.1512,-2.73,93,100,3.47,RU,1730761903
176,san antonio de pale,-1.4014,5.6325,25.4,83,100,5.43,GQ,1730761904
177,zuni pueblo,35.0725,-108.8506,6.99,54,100,4.79,US,1730761905
178,port sudan,19.6175,37.2164,26.67,65,71,5.86,SD,1730761906
179,znamenskoye,57.1281,73.8282,-1.54,69,76,6.45,RU,1730761907
180,yuzhno-kurilsk,44.0306,145.8556,5.95,79,100,6.67,RU,1730761909
181,praia da vitoria,38.7333,-27.0667,18.93,86,77,5.2,PT,1730761910
182,saint-philippe,-21.3585,55.7679,22.86,85,38,3.99,RE,1730761911
183,santa cruz,-17.8,-63.1667,29.03,70,48,4.63,BO,1730761912
184,soio,-6.1349,12.3689,25.65,88,69,3.74,AO,1730761913
185,celestun,20.8667,-90.4,28.67,71,3,6.14,MX,1730761914
186,urucui,-7.2294,-44.5561,30.8,33,84,1.68,BR,1730761915
187,college,64.8569,-147.8028,-6.97,78,100,2.57,US,1730761917
188,tura,25.5198,90.2201,21.64,76,37,1.44,IN,1730761919
189,nogliki,51.8333,143.1667,-3.46,74,100,2.75,RU,1730761920
190,caister-on-sea,52.6481,1.7265,9.95,80,100,2.12,GB,1730761921
191,krasnozerskoye,53.9828,79.2374,-1.25,67,64,4.42,RU,1730761922
192,chiang mai,18.75,99.0,24.04,73,20,1.54,TH,1730761924
193,flying fish cove,-10.4217,105.6791,26.82,94,100,5.14,CX,1730761925
194,inhambane,-23.865,35.3833,23.46,83,2,4.94,MZ,1730761926
195,vila franca do campo,37.7167,-25.4333,21.23,99,87,6.61,PT,1730761927
196,ugoofaaru,5.6667,73.0,27.46,75,93,3.76,MV,1730761928
197,svetlyy yar,48.4748,44.781,1.8,93,90,6.84,RU,1730761929
198,tonota,-21.4833,27.4833,24.67,16,0,4.82,BW,1730761930
199,andapa,-14.65,49.65,20.49,98,100,0.32,MG,1730761932
200,pierre,44.3683,-100.351,11.82,61,0,3.09,US,1730761737
201,calatayud,41.3535,-1.6432,16.24,76,99,1.41,ES,1730761934
202,saldanha,-33.0117,17.9442,13.1,63,0,9.25,ZA,1730761935
203,dongargarh,21.2,80.7333,19.1,56,0,1.87,IN,1730761936
204,luderitz,-26.6481,15.1594,13.26,48,17,12.59,NA,1730761937
205,fale old settlement,-9.3852,-171.2468,26.42,81,100,4.08,TK,1730761938
206,tosontsengel,48.7567,98.2839,-11.58,87,71,0.24,MN,1730761940
207,port douglas,-16.4833,145.4667,25.83,68,79,3.27,AU,1730761941
208,midvagur,62.0511,-7.1939,10.46,100,100,2.57,FO,1730761942
209,damboa,11.156,12.7576,22.36,29,75,2.71,NG,1730761943
210,mont-laurier,46.5501,-75.4993,2.72,94,100,3.99,CA,1730761944
211,aquin,18.2833,-73.4,25.02,88,100,3.07,HT,1730761945
212,chandler,33.3062,-111.8412,21.82,23,20,5.66,US,1730761946
213,caluula,11.9661,50.7569,25.76,80,23,2.54,SO,1730761948
214,seydi,39.4816,62.9137,13.28,66,100,3.84,TM,1730761949
215,east london,-33.0153,27.9116,12.82,79,100,5.16,ZA,1730761950
216,mori,34.8333,137.9333,15.8,89,76,2.06,JP,1730761951
217,sisimiut,66.9395,-53.6735,-6.6,86,84,3.6,GL,1730761952
218,cannonvale,-20.2833,148.7,26.66,61,62,3.87,AU,1730761953
219,labrador city,52.9463,-66.9114,-1.57,75,84,2.67,CA,1730761954
220,hassi messaoud,31.6804,6.0729,23.66,33,1,4.18,DZ,1730761956
221,pisco,-13.7,-76.2167,19.03,82,0,8.75,PE,1730761957
222,macapa,0.0389,-51.0664,29.99,74,0,5.66,BR,1730761958
223,misungwi,-2.85,33.0833,22.98,69,90,2.61,TZ,1730761959
224,sao felix do xingu,-6.6447,-51.995,23.34,97,100,0.77,BR,1730761960
225,carutapera,-1.195,-46.02,25.1,79,100,3.57,BR,1730761961
226,saltpond,5.2091,-1.0606,26.27,83,13,2.54,GH,1730761962
227,deqen,29.9618,90.7188,-0.14,93,100,0.65,CN,1730761963
228,avarua,-21.2078,-159.775,25.03,83,20,5.66,CK,1730761965
229,pacific grove,36.6177,-121.9166,18.06,78,0,4.63,US,1730761966
230,ta`u,-14.2336,-169.5144,27.83,78,100,5.59,AS,1730761967
231,shar,49.5886,81.0453,7.51,90,100,2.31,KZ,1730761968
232,sao joao da barra,-21.6403,-41.0511,23.92,85,98,7.59,BR,1730761969
233,westport,41.1415,-73.3579,12.93,76,100,2.57,US,1730761970
234,pont rouge,48.8833,-72.0825,1.65,96,100,4.69,CA,1730761972
235,burang,30.25,81.1667,0.84,66,3,0.53,CN,1730761973
236,alice springs,-23.7,133.8833,29.75,37,7,2.57,AU,1730761974
237,alvaraes,-3.2208,-64.8042,27.93,52,100,1.03,BR,1730761975
238,baoying,33.2292,119.3092,9.75,75,51,2.93,CN,1730761976
239,karachi,24.9056,67.0822,24.9,83,0,2.06,PK,1730761869
240,kandhkot,28.244,69.1824,25.64,33,0,2.32,PK,1730761978
241,manakara,-22.1333,48.0167,23.12,91,100,2.33,MG,1730761979
242,road town,18.4167,-64.6167,29.02,79,40,3.09,VG,1730761981
243,gizo,-8.103,156.8419,28.46,73,83,0.92,SB,1730761982
244,waiuku,-37.25,174.75,17.81,56,55,3.8,NZ,1730761983
245,ulladulla,-35.35,150.4667,17.02,74,100,0.84,AU,1730761985
246,brisas de zicatela,15.8369,-97.0419,29.29,79,40,6.17,MX,1730761986
247,menongue,-14.6585,17.691,18.69,79,93,0.85,AO,1730761988
248,kualakapuas,-3.0091,114.3876,24.46,90,99,0.52,ID,1730761989
249,nguigmi,14.2495,13.1092,23.92,23,7,5.02,NE,1730761990
250,ciudad cuauhtemoc,22.1833,-97.8333,28.06,83,75,7.2,MX,1730761991
251,san jorge,-31.8962,-61.8598,21.3,51,55,5.72,AR,1730761993
252,kalajoki,64.25,23.95,6.06,93,100,2.35,FI,1730761994
253,krasnokamensk,50.0979,118.0369,-8.63,83,19,1.51,RU,1730761996
254,hovd,48.0056,91.6419,-1.43,66,49,0.66,MN,1730761997
255,saipan,15.1355,145.701,31.39,79,40,8.23,MP,1730761998
256,dudinka,69.4058,86.1778,-6.74,89,47,8.03,RU,1730761999
257,qamdo,31.1667,97.2333,-1.0,82,95,1.7,CN,1730762000
258,remire-montjoly,4.9167,-52.2667,27.02,83,20,1.54,GF,1730762001
259,jaffa,32.0504,34.7522,18.38,73,0,1.54,IL,1730762002
260,umarkot,25.3616,69.7362,24.75,55,0,3.6,PK,1730762004
261,inhuma,-6.6683,-41.7078,29.86,27,56,3.96,BR,1730762005
262,anloga,5.7947,0.8973,27.53,78,1,2.67,GH,1730762006
263,mungyeong,36.5946,128.1995,9.68,69,100,1.11,KR,1730762007
264,cedeira,43.6797,-8.0209,14.43,100,100,2.91,ES,1730762008
265,san patricio,28.017,-97.5169,28.97,76,70,9.87,US,1730762009
266,lincoln city,44.9582,-124.0179,13.81,92,61,8.05,US,1730762010
267,weno,7.4515,151.8468,30.97,79,40,3.6,FM,1730762012
268,palikir - national government center,6.9248,158.1611,32.41,66,40,2.57,FM,1730762013
269,touros,-5.1989,-35.4608,25.46,77,11,6.78,BR,1730762014
270,dolinsk,47.35,142.8,2.78,75,100,4.66,RU,1730762015
271,lichinga,-13.3128,35.2406,21.05,56,40,4.63,MZ,1730762016
272,caninde,-4.3589,-39.3117,27.15,51,23,0.78,BR,1730762017
273,shingu,33.7333,135.9833,18.7,76,94,1.45,JP,1730762018
274,eureka,40.8021,-124.1637,15.66,79,100,0.45,US,1730762020
275,sandnessjoen,66.0217,12.6316,9.06,93,75,6.17,NO,1730762021
276,coaldale,49.7167,-112.6185,7.76,43,100,7.5,CA,1730762022
277,luganville,-15.5333,167.1667,25.68,68,100,3.94,VU,1730762023
278,sydney mines,46.2367,-60.2177,3.52,76,65,2.68,CA,1730762024
279,el bauga,18.262,33.9081,23.09,21,4,6.46,SD,1730762025
280,katsuren-haebaru,26.3369,127.8719,25.43,83,20,1.54,JP,1730762026
281,turochak,52.2576,87.1224,5.65,80,100,0.59,RU,1730762028
282,tsiombe,-25.3,45.4833,22.16,87,11,4.97,MG,1730762029
283,gillette,44.2911,-105.5022,5.57,54,0,7.2,US,1730761947
284,fortuna,40.5982,-124.1573,16.63,67,100,2.06,US,1730762031
285,dosso,13.049,3.1937,25.13,19,3,4.23,NE,1730762032
286,nikolayevsk-on-amure,53.1406,140.73,-5.54,91,100,1.87,RU,1730762033
287,hotan,37.0997,79.9269,10.35,33,67,1.11,CN,1730762034
288,new norfolk,-42.7826,147.0587,17.62,41,7,1.61,AU,1730762036
289,long beach,33.767,-118.1892,24.43,31,0,4.12,US,1730761746
290,pemangkat,1.1667,108.9667,25.58,87,94,2.15,ID,1730762038
291,bouarfa,32.53,-1.95,15.67,49,100,1.42,MA,1730762039
292,mansourah,31.0364,31.3807,16.78,77,20,2.38,EG,1730762040
293,siluko,6.5386,5.1609,23.95,97,2,0.64,NG,1730762041
294,bengkulu,-3.8004,102.2655,24.77,83,100,1.07,ID,1730762042
295,port said,31.2565,32.2841,21.63,68,10,4.62,EG,1730762045
296,quincy,42.2529,-71.0023,10.12,73,100,4.12,US,1730762046
297,angaur state,6.906,134.13,28.25,76,97,3.67,PW,1730762047
298,suomussalmi,64.8869,28.9078,-3.18,86,93,1.8,FI,1730762048
299,balabac,7.9868,117.0645,26.7,83,89,1.53,PH,1730762049
300,afaahiti,-17.75,-149.2833,25.07,84,96,4.45,PF,1730762050
301,kljuc,44.535,16.7722,4.21,88,6,0.93,BA,1730762052
302,newman,37.3138,-121.0208,21.13,29,1,2.68,US,1730762053
303,falam,22.9167,93.6833,15.65,95,13,0.54,MM,1730762054
304,naze,28.3667,129.4833,22.26,67,82,5.63,JP,1730762055
305,val-d'or,48.1002,-77.7828,3.05,93,100,7.2,CA,1730762056
306,la passe,45.5549,-0.8967,16.35,85,100,3.83,FR,1730762057
307,kalmunai,7.4167,81.8167,25.03,85,94,1.86,LK,1730762058
308,beyneu,45.3167,55.2,3.88,52,3,6.38,KZ,1730762060
309,shanwei,22.782,115.3475,24.17,66,100,3.07,CN,1730762061
310,mushie,-3.0167,16.9,21.61,98,67,1.31,CD,1730762062
311,yung shue wan,22.2333,114.1167,24.79,73,94,0.45,HK,1730762063
312,isangel,-19.55,169.2667,26.06,61,75,2.57,VU,1730762064
313,kenai,60.5544,-151.2583,2.3,88,0,1.54,US,1730762065
314,lompoc,34.6391,-120.4579,20.29,51,0,7.2,US,1730762067
315,fuji,35.1667,138.6833,18.0,70,77,2.03,JP,1730762068
316,chibougamau,49.9168,-74.3659,-0.21,100,100,7.2,CA,1730762069
317,nova vicosa,-17.8919,-39.3719,24.14,83,33,4.5,BR,1730762070
318,nouadhibou,20.931,-17.0347,20.0,82,89,6.79,MR,1730762071
319,itamaraca,-7.7478,-34.8256,25.14,68,3,4.32,BR,1730762072
320,yaring,6.8662,101.3689,24.22,90,97,0.99,TH,1730762073
321,ignalina,55.35,26.1667,0.28,85,63,3.45,LT,1730762075
322,galich,58.3797,42.3475,-4.67,98,43,2.11,RU,1730762076
323,brookings,44.3114,-96.7984,8.0,88,20,3.09,US,1730762077
324,buka,40.8108,69.1986,15.54,63,100,0.76,UZ,1730762078
325,malakwal,32.5536,73.2123,20.16,34,1,2.66,PK,1730762079
326,tarnos,43.5417,-1.4628,16.17,88,100,1.54,FR,1730762080
327,cill airne,52.05,-9.5167,11.45,92,97,2.96,IE,1730762081
328,puerto deseado,-47.7503,-65.8938,11.74,49,90,10.27,AR,1730762083
329,shiguai,40.7058,110.2856,0.18,59,0,1.86,CN,1730762084
330,minas de marcona,-15.2119,-75.1103,14.45,82,12,6.62,PE,1730762085
331,oranjemund,-28.55,16.4333,12.71,63,0,11.43,NA,1730762086
332,bonanza,14.0289,-84.591,22.98,96,82,1.36,NI,1730762087
333,orangeville,43.9168,-80.0997,13.01,86,100,7.62,CA,1730762088
334,harper,4.375,-7.7169,25.15,88,27,2.45,LR,1730762089
335,nkhotakota,-12.9274,34.2961,26.48,59,61,1.58,MW,1730762091
336,imbituba,-28.24,-48.6703,20.61,92,95,4.41,BR,1730762092
337,ocana,8.2377,-73.356,18.64,93,95,1.37,CO,1730762094
338,guilin,25.2819,110.2864,16.54,66,10,2.98,CN,1730762095
339,timmins,48.4669,-81.3331,7.9,100,100,3.09,CA,1730762096
340,arkalyk,50.2486,66.9114,-2.83,79,16,2.42,KZ,1730762097
341,porto novo,6.4965,2.6036,25.87,83,0,2.17,BJ,1730762098
342,lincheng,19.9078,109.6858,22.92,91,89,5.52,CN,1730762100
343,kernersville,36.1199,-80.0736,13.95,84,0,2.06,US,1730762101
344,oyama,36.3,139.8,16.9,62,63,2.51,JP,1730762102
345,sasovo,54.3537,41.9199,-2.58,91,73,5.56,RU,1730762103
346,tobelo,1.7284,128.0095,27.56,74,98,0.71,ID,1730762104
347,pechora,65.1472,57.2244,-4.34,91,97,4.91,RU,1730762105
348,pavlovsk,50.4578,40.1081,-0.69,86,100,9.07,RU,1730762107
349,kingston,17.997,-76.7936,25.53,89,75,4.63,JM,1730762108
350,chimore,-16.9833,-65.1333,28.72,62,99,1.64,BO,1730762109
351,dzhalagash,45.0833,64.6667,2.08,57,48,3.1,KZ,1730762110
352,puerto penasco,31.3167,-113.5333,23.99,16,0,4.63,MX,1730762111
353,turan,16.0678,108.2208,23.99,100,100,3.6,VN,1730762112
354,moapa valley,36.5805,-114.4703,19.93,14,1,6.58,US,1730761836
355,thunder bay,48.4001,-89.3168,10.99,100,100,2.57,CA,1730762115
356,whistler,50.1164,-122.9695,3.67,98,96,2.75,CA,1730761940
357,washington,47.5001,-120.5015,10.22,70,83,4.51,US,1730762117
358,santa maria del oro,25.9333,-105.3667,22.32,20,0,11.21,MX,1730762118
359,kirakira,-10.4544,161.9205,30.09,71,86,1.51,SB,1730762119
360,constantia,44.1833,28.65,4.38,62,5,7.69,RO,1730762120
361,serafimovskiy,54.4241,53.7964,-2.62,96,100,2.44,RU,1730762121
362,bandundu,-3.3167,17.3667,21.85,96,85,1.35,CD,1730762123
363,tolanaro,-25.0319,46.9987,24.04,88,20,9.26,MG,1730762125
364,rongelap,11.1635,166.8941,26.66,81,100,4.52,MH,1730762126
365,kulhudhuffushi,6.6221,73.07,27.88,72,63,2.23,MV,1730762127
366,koryazhma,61.3143,47.1691,-4.15,91,87,2.97,RU,1730762128
367,nabire,-3.3667,135.4833,24.04,92,100,1.43,ID,1730762130
368,alipur,29.3846,70.9116,25.07,26,0,2.44,PK,1730762132
369,ancud,-41.8697,-73.8203,10.92,92,100,8.8,CL,1730762133
370,usogorsk,63.4106,48.6872,-3.65,94,98,2.51,RU,1730762134
371,hithadhoo,-0.6,73.0833,27.89,68,36,4.36,MV,1730762135
372,ola,59.5833,151.2833,-12.48,72,84,6.16,RU,1730762137
373,santana,-0.0583,-51.1817,30.1,74,0,5.66,BR,1730762138
374,kingsford,-33.924,151.2275,21.06,65,75,4.12,AU,1730761994
375,la paz,-16.5,-68.15,13.65,48,40,3.6,BO,1730762140
376,dolores,-36.3132,-57.6792,16.07,79,64,1.68,AR,1730762141
377,khash,28.2211,61.2158,18.24,24,0,0.93,IR,1730762142
378,saint-joseph,-21.3667,55.6167,22.21,85,18,3.02,RE,1730762143
379,vila velha,-20.3297,-40.2925,24.97,89,100,3.09,BR,1730762145
380,eket,4.6412,7.9209,25.2,89,48,2.2,NG,1730762146
381,greenville,35.6127,-77.3663,18.97,87,0,1.54,US,1730762147
382,swift current,50.2834,-107.8014,6.45,42,75,4.12,CA,1730762148
383,alesund,62.4723,6.1549,11.53,87,100,4.63,NO,1730762149
384,ciudad lazaro cardenas,17.9583,-102.2,28.36,73,6,3.03,MX,1730761880
385,al ghayzah,16.2079,52.176,26.55,74,16,2.19,YE,1730762152
386,telhara,21.0269,76.8389,22.2,55,0,0.61,IN,1730762154
387,ternate,0.8,127.4,27.26,78,98,1.77,ID,1730762155
388,ubari,26.5921,12.7805,17.66,40,0,2.02,LY,1730762156
389,leticia,-4.2153,-69.9406,27.99,94,20,1.03,CO,1730762157
390,karak city,31.1637,35.762,12.48,68,0,0.94,JO,1730762159
391,pervomayskoye,43.919,46.7102,6.23,78,96,4.61,RU,1730762161
392,lodja,-3.4833,23.4333,19.5,97,72,0.92,CD,1730762163
393,tralee,52.2704,-9.7026,11.37,89,92,3.31,IE,1730762164
394,kununurra,-15.7667,128.7333,30.99,62,1,3.09,AU,1730762165
395,tenenkou,14.4572,-4.9169,27.69,18,63,3.77,ML,1730762166
396,mount pearl,47.5166,-52.7813,1.75,67,100,5.66,CA,1730762167
397,mukalla,14.5425,49.1242,26.35,75,0,2.73,YE,1730762169
398,tazovsky,67.4667,78.7,-4.0,96,100,6.84,RU,1730762170
399,cockburn town,21.4612,-71.1419,28.1,82,99,9.94,TC,1730762097
400,luwuk,-0.9516,122.7875,24.99,74,99,2.6,ID,1730762172
401,taulaga,-11.0553,-171.0883,25.58,90,99,11.98,AS,1730762175
402,alaca,40.1683,34.8425,4.79,54,2,1.0,TR,1730762176
403,valparaiso,-33.0393,-71.6273,18.8,42,0,3.6,CL,1730762177
404,nuuk,64.1835,-51.7216,-2.66,86,100,2.57,GL,1730762178
405,chonchi,-42.6128,-73.8092,10.62,86,100,3.18,CL,1730762179
406,alta sierra,35.7291,-118.5495,12.66,35,0,2.96,US,1730762180
407,pyin oo lwin,22.0333,96.4667,15.83,89,0,1.8,MM,1730762181
408,san andres,12.5847,-81.7006,29.01,79,20,2.06,CO,1730762183
409,jianshui,23.6363,102.8264,12.99,93,82,2.18,CN,1730762184
410,prosser,46.2068,-119.7689,15.1,49,49,9.83,US,1730762185
411,san sebastian de la gomera,28.0916,-17.1133,21.2,88,0,0.0,ES,1730762187
412,kavaratti,10.5669,72.642,27.35,76,49,2.55,IN,1730762188
413,ghadamis,30.1337,9.5007,22.0,34,0,3.8,LY,1730762190
414,luanda,-8.8368,13.2343,26.0,78,75,4.12,AO,1730762191
415,winnemucca,40.973,-117.7357,12.03,28,0,5.66,US,1730761914
416,mili,6.0815,171.735,28.26,70,37,2.51,MH,1730762193
417,aksuat,48.7167,83.7,8.41,51,100,1.01,KZ,1730762194
418,rio grande,-32.035,-52.0986,22.2,88,9,5.73,BR,1730762195
419,grand falls-windsor,48.9332,-55.6649,-1.97,73,37,3.11,CA,1730762196
420,ujae,8.9322,165.7642,26.78,79,100,2.31,MH,1730762197
421,nkove,-7.95,30.85,24.67,65,51,0.36,TZ,1730762199
422,sinabang,2.4803,96.3801,25.63,85,100,0.87,ID,1730762200
423,pontianak,-0.0333,109.3333,23.99,100,40,1.54,ID,1730762201
424,andreapol',56.6513,32.2664,-2.54,94,94,3.53,RU,1730762202
425,tegueste,28.5167,-16.3167,18.23,80,0,1.79,ES,1730762203
426,salinopolis,-0.6136,-47.3561,26.75,76,68,5.81,BR,1730762204
427,santa helena,-2.2311,-45.3,24.9,74,88,2.09,BR,1730762205
428,chandbali,20.7833,86.7667,21.95,82,1,2.11,IN,1730762207
429,maxixe,-23.8597,35.3472,23.05,84,1,4.43,MZ,1730762208
430,lokhvytsya,50.3678,33.2602,-1.25,78,43,6.69,UA,1730762209
431,pran buri,12.3847,99.9098,24.01,93,96,3.4,TH,1730762210
432,fuerte olimpo,-21.0415,-57.8738,30.24,52,59,2.86,PY,1730762211
433,jieshi,22.8134,115.8257,22.97,75,67,3.22,CN,1730762213
434,port hedland,-20.3167,118.5667,30.03,74,66,5.14,AU,1730762214
435,varberg,57.1056,12.2508,8.85,91,100,4.55,SE,1730762215
436,pollock pines,38.7613,-120.5866,14.83,45,0,0.45,US,1730762216
437,labuan,5.2767,115.2417,25.2,94,40,0.0,MY,1730762217
438,tobruk,32.0836,23.9764,20.02,63,26,8.11,LY,1730762218
439,kawambwa,-9.7915,29.0791,18.4,80,42,0.53,ZM,1730762219
440,khanty-mansiysk,61.0042,69.0019,-0.94,80,75,6.0,RU,1730762221
441,murzuq,25.9155,13.9184,17.39,44,0,3.07,LY,1730762222
442,tangalle,6.024,80.7911,24.49,93,100,4.83,LK,1730762223
443,mariental,-24.6333,17.9667,15.31,23,33,8.26,NA,1730762224
444,broken hill,-31.95,141.4333,25.14,29,32,4.62,AU,1730762225
445,bikenibeu village,1.3673,173.1241,30.98,70,40,3.09,KI,1730762226
446,menzelinsk,55.7271,53.1026,-2.03,76,100,2.4,RU,1730762227
447,ratnagiri,16.9833,73.3,24.69,57,38,1.9,IN,1730762229
448,apac,1.9756,32.5386,18.08,92,95,0.81,UG,1730762230
449,yorkton,51.2167,-102.4677,5.05,42,3,3.21,CA,1730761992
450,necochea,-38.5473,-58.7368,13.44,53,0,2.31,AR,1730762232
451,galliano,29.4422,-90.2992,26.0,73,40,3.09,US,1730762233
452,ingeniero jacobacci,-41.3427,-69.5448,8.64,58,3,12.74,AR,1730762234
453,zaragoza,41.6561,-0.8773,17.25,82,20,2.06,ES,1730762235
454,tympaki,35.0729,24.7685,13.95,67,0,2.68,GR,1730762237
455,lagkadas,40.75,23.0667,14.44,49,2,2.02,GR,1730762238
456,polevskoy,56.4422,60.1878,-5.99,92,76,3.16,RU,1730762239
457,maun,-19.9833,23.4167,28.39,29,91,1.87,BW,1730762240
458,bozeman,45.6796,-111.0386,5.56,55,40,2.06,US,1730761989
459,tidaholm,58.1804,13.9582,7.51,90,59,1.82,SE,1730762242
460,tuy hoa,13.0833,109.3,23.69,94,85,1.32,VN,1730762243
461,port augusta,-32.5,137.7667,28.3,26,74,2.45,AU,1730762245
462,okhtyrka,50.3104,34.8988,-1.6,81,98,7.0,UA,1730762246
463,ilebo,-4.3167,20.5833,21.16,99,96,0.64,CD,1730762247
464,twon-brass,4.3151,6.2418,26.89,81,49,3.51,NG,1730762248
465,valley city,46.9233,-98.0032,3.29,100,100,6.17,US,1730762249
466,arinos,-15.9169,-46.1056,22.76,84,93,1.94,BR,1730762250
467,matola,-25.9622,32.4589,22.6,72,53,5.31,MZ,1730762136
468,ishigaki,24.3448,124.1572,25.07,88,75,6.17,JP,1730762253
469,extrema,-22.8547,-46.3183,18.16,98,100,1.46,BR,1730762255
470,chililabombwe,-12.3648,27.8229,19.02,82,98,1.29,ZM,1730762256
471,kimbe,-5.5502,150.1429,30.16,65,46,0.99,PG,1730762257
472,yalta,44.5,34.1667,4.7,65,47,3.86,UA,1730762212
473,alofi,-19.0595,-169.9187,23.94,83,75,5.14,NU,1730762259
474,ketchikan,55.3422,-131.6461,8.52,66,20,4.12,US,1730762260
475,el matama,16.7095,33.3565,24.73,20,16,5.2,SD,1730762262
476,avallon,47.4833,3.9,9.85,81,0,1.44,FR,1730762263
477,ulsteinvik,62.3432,5.8487,11.53,88,100,0.89,NO,1730762264
478,paredon,16.0333,-93.8667,28.42,74,23,1.83,MX,1730762265
479,upper grand lagoon,30.1633,-85.7408,25.57,65,20,2.57,US,1730762266
480,solleftea,63.1667,17.2667,-0.08,83,100,6.15,SE,1730762267
481,acarau,-2.8856,-40.12,25.35,81,76,7.89,BR,1730762268
482,eyl,7.9803,49.8164,25.7,79,39,4.06,SO,1730762270
483,zhanaozen,43.3,52.8,6.43,61,47,5.61,KZ,1730762271
484,bamboo flat,11.7,92.7167,25.05,94,75,0.51,IN,1730762272
485,la ronge,55.1001,-105.2842,3.14,70,20,2.06,CA,1730762273
486,kushiro,42.975,144.3747,8.53,61,20,2.06,JP,1730762274
487,kashgar,39.4547,75.9797,9.56,49,20,3.0,CN,1730762275
488,urgup,38.6304,34.9116,4.41,69,2,1.23,TR,1730762278
489,mahdia,35.5047,11.0622,20.42,77,26,4.17,TN,1730762279
490,eden isle,30.2285,-89.7987,26.03,83,100,5.14,US,1730762280
491,dawei,14.0833,98.2,24.1,85,89,4.16,MM,1730762281
492,mana,5.6592,-53.7767,27.08,79,100,5.76,GF,1730762282
493,yarkovo,57.4028,67.0786,-1.76,74,96,5.65,RU,1730762283
494,khuzdar,27.7384,66.6434,19.47,34,0,1.88,PK,1730762285
495,ironwood,46.4547,-90.171,10.45,100,100,3.6,US,1730762286
496,el granada,37.5027,-122.4694,22.22,57,0,6.69,US,1730762287
497,xuddur,4.1213,43.8894,23.0,84,74,4.53,SO,1730762288
498,manokwari,-0.8667,134.0833,26.96,77,97,4.23,ID,1730762289
499,emerald,-23.5333,148.1667,27.97,48,7,4.13,AU,1730762290
500,stornoway,58.2093,-6.3865,9.98,95,75,0.51,GB,1730762291
501,mulayjah,27.271,48.4242,24.96,48,0,3.79,SA,1730762293
502,swakopmund,-22.6833,14.5333,13.32,80,4,2.24,NA,1730762294
503,nelson bay,-32.7167,152.15,21.73,81,100,1.34,AU,1730762295
504,puerto santa,-8.9906,-78.6456,18.29,86,85,5.31,PE,1730762296
505,cortina d'ampezzo,46.5384,12.1377,-1.69,76,3,1.0,IT,1730762297
506,lycksele,64.5954,18.6735,1.93,100,100,0.0,SE,1730762298
507,jiwani,25.05,61.7417,27.15,75,0,2.05,PK,1730762299
508,hecun,36.5333,114.1111,6.4,31,64,0.3,CN,1730762301
509,campoverde,-8.4753,-74.8058,28.83,57,85,0.85,PE,1730762302
510,serafimovich,49.5786,42.736,0.09,93,100,9.49,RU,1730762304
511,al hasakah,36.5024,40.7477,16.03,63,36,1.2,SY,1730762305
512,raceland,29.7274,-90.599,26.99,71,75,7.2,US,1730762306
513,yeniseysk,58.4497,92.1703,5.48,85,100,4.43,RU,1730762308
514,port macquarie,-31.4333,152.9167,22.82,83,90,2.68,AU,1730762309
515,ilha de mocambique,-15.0342,40.7358,25.6,84,0,4.59,MZ,1730762310
516,tieling,42.2931,123.8414,0.26,61,1,2.85,CN,1730762311
517,chernyshevskiy,63.0128,112.4714,-23.24,100,85,1.54,RU,1730762312
518,dobczyce,49.8811,20.0894,5.27,91,15,1.29,PL,1730762313
519,queenstown,-31.8976,26.8753,5.53,90,100,2.46,ZA,1730762314
520,badiyah,22.45,58.8,23.68,49,3,2.02,OM,1730762316
521,betioky,-23.7167,44.3833,22.35,81,0,0.42,MG,1730762317
522,gamba,-2.65,10.0,23.8,97,100,0.74,GA,1730762318
523,saynshand,44.8824,110.1163,-3.05,39,2,2.55,MN,1730762319
524,victorica,-36.2151,-65.4359,18.24,25,0,3.65,AR,1730762320
525,mar del plata,-38.0023,-57.5575,16.64,64,0,3.13,AR,1730762321
526,karwar,14.8,74.1333,27.04,73,54,2.12,IN,1730762322
527,acapulco de juarez,16.8634,-99.8901,29.9,74,75,4.12,MX,1730762324
528,le lavandou,43.137,6.366,12.9,94,0,2.57,FR,1730762325
529,ryotsu-minato,38.0833,138.4333,12.87,65,96,3.17,JP,1730762326
530,aykhal,66.0,111.5,-15.41,94,100,6.0,RU,1730762327
531,zemio,5.0314,25.1361,20.83,94,100,0.31,CF,1730762328
532,novyy urgal,51.0736,132.5642,-5.31,92,100,1.05,RU,1730762329
533,murun-kuren,49.6342,100.1625,-5.4,72,66,1.19,MN,1730762330
534,chicoana,-25.1009,-65.5331,25.03,66,82,1.48,AR,1730762332
535,fort st. john,56.2499,-120.8529,-0.06,93,100,3.09,CA,1730762333
536,floro,61.5996,5.0328,8.98,93,100,2.57,NO,1730762334
537,jinchang,38.4953,102.1739,5.18,42,0,2.22,CN,1730762335
538,penzance,50.1186,-5.5371,13.38,92,100,7.2,GB,1730762336
539,thinadhoo,0.5333,72.9333,27.88,70,79,5.22,MV,1730762337
540,peace river,56.2501,-117.286,3.17,75,100,1.54,CA,1730762338
541,novocherkassk,47.4181,40.0939,2.01,80,40,7.0,RU,1730762340
542,gouyave,12.1646,-61.7296,26.43,83,40,5.66,GD,1730762341
543,meadow lakes,61.6247,-149.6011,3.4,89,100,2.06,US,1730762342
544,manismata,-2.4667,111.0333,22.76,98,95,0.88,ID,1730762343
545,shujaabad,29.8797,71.2931,23.73,27,0,1.29,PK,1730762344
546,happy valley-goose bay,53.3168,-60.3315,0.17,51,75,1.54,CA,1730762345
547,port isabel,26.0734,-97.2086,29.02,77,100,9.26,US,1730762346
548,kita,13.0349,-9.4895,25.47,29,100,2.11,ML,1730762348
549,maraba,-5.3686,-49.1178,27.1,83,100,2.06,BR,1730762349
550,argo,37.6333,22.7333,13.2,74,0,2.23,GR,1730762350
551,sola,-13.8833,167.55,25.85,76,100,8.75,VU,1730762351
552,patterson,37.4716,-121.1297,21.11,29,1,5.18,US,1730762352
553,bay harbor,30.1471,-85.6146,25.53,64,20,2.57,US,1730762353
554,tianpeng,30.9866,103.9393,13.46,89,39,2.2,CN,1730762355
555,nehe,48.4833,124.8333,-5.59,64,77,4.71,CN,1730762356
556,nagqu,31.5,92.0,-2.53,29,100,0.94,CN,1730762357
557,vallenar,-28.5708,-70.7581,24.91,20,0,1.81,CL,1730762358
558,dubovskoye,47.4092,42.7575,0.64,97,68,9.29,RU,1730762359
559,muravlenko,63.7898,74.523,-4.38,95,100,7.45,RU,1730762360
560,marsh harbour,26.5412,-77.0636,25.65,78,54,11.44,BS,1730762361
